City_ID,City,Lat,Lng,Max Temp,Humidity,Cloudiness,Wind Speed,Country,Date
0,langsa,4.4683,97.9683,29.77,59,86,0.98,ID,1676516361
1,bengkulu,-3.8004,102.2655,27.7,68,98,0.84,ID,1676516361
2,vaini,-21.2,-175.2,29.09,84,75,5.14,TO,1676516361
3,vysokogornyy,50.1167,139.15,-16.25,81,90,2.73,RU,1676516362
4,marzuq,14.4,46.4667,14.51,15,5,2.59,YE,1676516362
5,te anau,-45.4167,167.7167,22.15,38,69,1.64,NZ,1676516345
6,usinsk,65.9939,57.5281,-11.62,91,100,8.67,RU,1676516363
7,saint-pierre,-21.3393,55.4781,24.39,68,0,3.6,RE,1676516363
8,rikitea,-23.1203,-134.9692,26.27,70,100,2.62,PF,1676516364
9,champerico,14.3,-91.9167,25.28,77,0,2.02,GT,1676516364
10,balikpapan,-1.2675,116.8289,26.55,78,20,1.03,ID,1676516364
11,pisco,-13.7,-76.2167,23.03,94,20,2.06,PE,1676516365
12,mataura,-46.1927,168.8643,14.71,47,100,2.0,NZ,1676516365
13,jamestown,42.097,-79.2353,10.01,65,0,7.2,US,1676516309
14,cidreira,-30.1811,-50.2056,23.4,89,29,3.13,BR,1676516188
15,touros,-5.1989,-35.4608,26.5,80,100,5.54,BR,1676516257
16,yellowknife,62.456,-114.3525,-31.36,75,20,1.03,CA,1676516366
17,gilgit,35.9221,74.3087,5.05,73,92,0.36,PK,1676516366
18,saint george,37.1041,-113.5841,2.33,37,0,4.12,US,1676516366
19,albany,42.6001,-73.9662,15.7,56,5,1.34,US,1676515795
20,qaanaaq,77.484,-69.3632,-28.89,64,23,3.72,GL,1676516338
21,busselton,-33.65,115.3333,21.8,56,64,3.75,AU,1676516367
22,san felipe,10.3399,-68.7425,21.69,96,99,2.58,VE,1676516367
23,muskegon,43.3,-86.1334,3.92,76,100,5.14,US,1676516106
24,redlands,34.0556,-117.1825,11.82,32,0,0.45,US,1676516276
25,hilo,19.7297,-155.09,21.85,93,100,4.02,US,1676516368
26,coihaique,-45.5752,-72.0662,7.97,53,0,1.54,CL,1676516124
27,inverell,-29.7833,151.1167,31.48,37,0,2.24,AU,1676516369
28,saint-philippe,-21.3585,55.7679,21.77,79,70,3.93,RE,1676516364
29,bethel,41.3712,-73.414,16.05,63,0,5.66,US,1676516370
30,vila franca do campo,37.7167,-25.4333,13.23,81,26,2.01,PT,1676516370
31,klaksvik,62.2266,-6.589,4.51,68,30,13.43,FO,1676516370
32,iqaluit,63.7506,-68.5145,-31.15,69,20,4.63,CA,1676516371
33,katsuura,35.1333,140.3,6.47,52,37,5.4,JP,1676516349
34,alugan,12.2188,125.4808,25.37,84,100,9.86,PH,1676516371
35,berlevag,70.8578,29.0864,-1.0,80,20,6.17,NO,1676516371
36,kumluca,36.3703,30.2869,7.72,41,8,2.63,TR,1676516372
37,kodiak,57.79,-152.4072,-4.27,46,0,4.63,US,1676516099
38,sitka,57.0531,-135.33,1.94,87,100,3.6,US,1676516372
39,chokurdakh,70.6333,147.9167,-39.07,100,91,0.47,RU,1676516373
40,hermanus,-34.4187,19.2345,18.22,85,47,7.68,ZA,1676516373
41,kuwana,35.0667,136.7,7.0,37,1,2.17,JP,1676516015
42,east london,-33.0153,27.9116,22.43,89,99,6.07,ZA,1676516359
43,tilichiki,60.4667,166.1,-22.12,80,100,5.46,RU,1676516374
44,joshimath,30.5667,79.5667,14.19,31,0,3.07,IN,1676515988
45,bathsheba,13.2167,-59.5167,25.34,78,40,9.26,BB,1676516375
46,pevek,69.7008,170.3133,-40.13,98,74,1.51,RU,1676516076
47,najran,17.4924,44.1277,21.36,45,8,2.71,SA,1676516078
48,mahebourg,-20.4081,57.7,23.47,94,75,1.54,MU,1676516375
49,clyde river,70.4692,-68.5914,-30.87,69,100,7.72,CA,1676516376
50,arraial do cabo,-22.9661,-42.0278,24.29,94,100,5.46,BR,1676516305
51,enkoping,59.6361,17.0777,1.92,93,100,3.72,SE,1676516376
52,lorengau,-2.0226,147.2712,27.68,78,100,3.99,PG,1676516377
53,sangar,63.9242,127.4739,-35.14,95,62,1.96,RU,1676516377
54,seymchan,62.8833,152.4333,-28.17,87,97,2.37,RU,1676516378
55,bredasdorp,-34.5322,20.0403,19.42,86,64,7.88,ZA,1676516378
56,la ronge,55.1001,-105.2842,-24.86,70,0,1.03,CA,1676516378
57,kuliyapitiya,7.4688,80.0401,22.82,63,85,2.27,LK,1676516379
58,taltal,-25.4,-70.4833,20.37,79,0,1.18,CL,1676516379
59,punta arenas,-53.15,-70.9167,5.06,56,20,7.2,CL,1676516124
60,palmer,42.1584,-72.3287,13.23,69,20,6.17,US,1676516380
61,bairiki,1.3292,172.9752,31.0,70,20,3.09,KI,1676516380
62,hasaki,35.7333,140.8333,7.94,51,30,6.21,JP,1676516181
63,carutapera,-1.195,-46.02,24.56,91,100,2.11,BR,1676516381
64,faya,18.3851,42.4509,13.06,53,21,2.5,SA,1676516381
65,lebu,-37.6167,-73.65,13.96,82,1,9.46,CL,1676516111
66,butaritari,3.0707,172.7902,27.4,78,79,5.27,KI,1676516339
67,cape town,-33.9258,18.4232,20.77,75,0,9.26,ZA,1676516221
68,jinchang,38.4953,102.1739,-0.27,49,20,1.59,CN,1676516382
69,paranaiba,-19.6772,-51.1908,22.87,88,100,2.13,BR,1676516383
70,saint-augustin,51.226,-58.6502,-5.16,96,100,3.93,CA,1676516383
71,kamiiso,41.8167,140.65,-1.79,80,75,5.14,JP,1676516383
72,bambous virieux,-20.3428,57.7575,23.45,94,75,1.54,MU,1676516384
73,dunedin,-45.8742,170.5036,17.11,70,78,4.92,NZ,1676516384
74,dong hoi,17.4833,106.6,17.26,92,100,5.28,VN,1676516107
75,baoning,25.3378,110.026,10.92,54,0,1.0,CN,1676516385
76,lompoc,34.6391,-120.4579,9.88,69,0,5.81,US,1676516202
77,kamenka,51.3223,42.7678,-13.1,96,90,3.29,RU,1676516385
78,adrar,20.5022,-10.0711,21.32,20,99,2.85,MR,1676516386
79,sao filipe,14.8961,-24.4956,21.16,73,0,6.42,CV,1676516344
80,kropotkin,45.4375,40.5756,-6.77,96,55,1.84,RU,1676516387
81,moshenskoye,58.5102,34.5911,-12.76,100,100,1.2,RU,1676516387
82,kurilsk,45.2333,147.8833,-7.8,63,100,10.41,RU,1676516388
83,presidencia roque saenz pena,-26.7852,-60.4388,28.5,53,15,3.62,AR,1676516388
84,tenkasi,8.956,77.3058,23.0,62,18,2.64,IN,1676516388
85,nettetal,51.3167,6.2833,6.62,89,3,3.26,DE,1676516389
86,maryville,35.7565,-83.9705,16.81,82,100,3.6,US,1676515913
87,ushuaia,-54.8,-68.3,3.81,81,100,7.72,AR,1676516125
88,songjianghe,42.1859,127.479,-2.98,48,97,2.69,CN,1676516180
89,provideniya,64.3833,-173.3,-24.8,64,40,6.0,RU,1676516389
90,santa maria,-29.6842,-53.8069,22.61,94,0,4.12,BR,1676516171
91,okakarara,-20.5833,17.4333,16.97,35,30,3.56,NA,1676516390
92,pochutla,15.7432,-96.4661,25.46,82,0,1.81,MX,1676516390
93,khatanga,71.9667,102.5,-15.26,95,100,5.25,RU,1676516391
94,avarua,-21.2078,-159.775,30.03,74,20,2.57,CK,1676516391
95,lagoa,39.05,-27.9833,14.42,72,88,4.34,PT,1676516391
96,castro,-24.7911,-50.0119,17.45,98,100,1.38,BR,1676516392
97,estelle,29.8458,-90.1067,22.22,91,2,4.02,US,1676516363
98,dunmore town,25.5,-76.65,24.09,63,82,7.73,BS,1676516392
99,portland,45.5234,-122.6762,5.32,80,20,2.57,US,1676515681
100,puerto leguizamo,-0.1934,-74.7819,22.75,98,100,0.98,CO,1676516393
101,bozoum,6.3193,16.3799,18.75,27,37,2.3,CF,1676516394
102,luderitz,-26.6481,15.1594,17.41,80,0,8.48,NA,1676516361
103,hithadhoo,-0.6,73.0833,27.22,79,30,5.09,MV,1676516394
104,toora-khem,52.4675,96.11,-21.63,97,95,0.76,RU,1676516395
105,poum,-20.2333,164.0167,26.31,73,98,8.3,NC,1676516395
106,faanui,-16.4833,-151.75,27.92,73,36,4.3,PF,1676516396
107,esmeraldas,-19.7625,-44.3139,20.17,89,100,0.51,BR,1676516396
108,kavieng,-2.5744,150.7967,28.07,74,100,4.89,PG,1676516357
109,victoria,22.2855,114.1577,18.35,56,16,3.58,HK,1676516303
110,kosa,59.9445,54.9977,-22.54,100,51,1.2,RU,1676516397
111,upernavik,72.7868,-56.1549,-24.68,74,100,4.44,GL,1676516398
112,panino,51.6467,40.1346,-14.4,98,82,3.15,RU,1676516398
113,ribeira grande,38.5167,-28.7,15.43,72,89,5.81,PT,1676516399
114,tuatapere,-46.1333,167.6833,19.49,55,64,3.13,NZ,1676516318
115,antigonish,45.6169,-61.9986,1.68,91,95,2.24,CA,1676516216
116,moerai,-22.4333,-151.3333,27.63,69,26,2.18,PF,1676516399
117,general roca,-39.0333,-67.5833,18.12,43,39,8.39,AR,1676516400
118,talara,-4.5772,-81.2719,26.42,73,75,3.6,PE,1676516400
119,hopkinsville,36.8656,-87.4886,19.02,95,94,3.94,US,1676516221
120,geraldton,-28.7667,114.6,25.23,53,40,6.69,AU,1676516401
121,saldanha,-33.0117,17.9442,18.03,89,0,4.03,ZA,1676516401
122,neijiang,29.5835,105.0622,9.83,77,100,1.44,CN,1676516402
123,bluff,-46.6,168.3333,14.89,67,93,3.7,NZ,1676516403
124,uchiza,-8.4592,-76.4633,21.96,97,100,0.9,PE,1676516404
125,la peca,-5.6111,-78.435,20.86,86,99,1.51,PE,1676516405
126,leningradskiy,69.3833,178.4167,-34.37,98,98,3.35,RU,1676516406
127,taksimo,56.3444,114.8794,-12.11,87,100,1.06,RU,1676516407
128,dingle,10.9995,122.6711,26.97,77,56,8.99,PH,1676516408
129,nikolskoye,59.7035,30.7861,-0.05,96,100,2.89,RU,1676516409
130,nagai,38.1036,140.035,-0.66,66,98,3.84,JP,1676516327
131,sakaiminato,35.55,133.2333,4.99,48,75,2.06,JP,1676516410
132,mar del plata,-38.0023,-57.5575,19.49,72,0,5.66,AR,1676516395
133,yulara,-25.2406,130.9889,37.72,18,2,2.61,AU,1676516411
134,hobart,-42.8794,147.3294,21.26,74,0,2.06,AU,1676516353
135,tigil,57.8,158.6667,-11.37,79,100,5.38,RU,1676516385
136,anaconda,46.1285,-112.9423,-11.6,90,30,2.75,US,1676516413
137,petropavlovsk-kamchatskiy,53.0452,158.6483,-2.67,43,77,7.0,RU,1676516414
138,henties bay,-22.116,14.2845,18.04,83,93,2.8,NA,1676516415
139,caravelas,-17.7125,-39.2481,25.71,81,56,3.7,BR,1676516415
140,mizque,-17.941,-65.3402,17.0,94,100,0.82,BO,1676516416
141,atuona,-9.8,-139.0333,26.0,74,75,6.0,PF,1676516417
142,inhambane,-23.865,35.3833,25.31,86,2,3.42,MZ,1676516417
143,port lincoln,-34.7333,135.8667,33.42,22,4,9.83,AU,1676516418
144,ponta do sol,32.6667,-17.1,15.07,53,38,4.6,PT,1676516419
145,tiznit,29.5833,-9.5,9.2,84,82,0.65,MA,1676516420
146,khandyga,62.6667,135.6,-35.79,93,62,0.09,RU,1676516420
147,gravdal,68.1214,13.5031,4.04,91,100,2.04,NO,1676516421
148,axim,4.8699,-2.2405,25.84,89,47,2.53,GH,1676516421
149,chase,50.8165,-119.6857,0.08,98,98,0.77,CA,1676516422
150,berdigestyakh,62.0989,126.6992,-26.74,96,77,0.83,RU,1676516422
151,shar,49.5886,81.0453,-16.92,98,78,1.79,KZ,1676516423
152,liverpool,53.4106,-2.9779,8.07,90,20,4.12,GB,1676516424
153,avera,33.194,-82.5271,14.73,75,100,1.61,US,1676516424
154,angoram,-4.0625,144.0661,26.42,90,100,1.64,PG,1676516425
155,barrow,71.2906,-156.7887,-26.99,76,75,5.14,US,1676516425
156,whitehorse,60.7161,-135.0538,-4.57,80,75,5.66,CA,1676516380
157,dovers,12.8833,-61.1833,25.54,73,27,9.37,VC,1676516426
158,gamba,-2.65,10.0,23.88,91,100,0.97,GA,1676516426
159,opunake,-39.4556,173.8583,18.4,80,100,12.01,NZ,1676516427
160,thompson,55.7435,-97.8558,-30.91,76,0,1.03,CA,1676516391
161,totskoye,52.5248,52.7623,-1.61,94,100,6.21,RU,1676516428
162,inirida,3.8653,-67.9239,23.23,90,94,0.65,CO,1676516428
163,srednekolymsk,67.45,153.6833,-33.27,94,99,1.28,RU,1676516429
164,luanda,-8.8368,13.2343,26.0,78,40,1.54,AO,1676516380
165,tual,-5.6667,132.75,27.87,79,100,6.76,ID,1676516429
166,romitan,39.9343,64.3814,5.97,100,75,1.03,UZ,1676516430
167,severo-kurilsk,50.6789,156.125,-3.13,90,99,14.27,RU,1676516384
168,shu,43.5983,73.7614,-2.37,94,100,0.74,KZ,1676516431
169,souillac,-20.5167,57.5167,24.21,88,40,0.51,MU,1676516432
170,vyyezdnoye,55.3815,43.7864,-10.88,96,98,3.07,RU,1676516432
171,san quintin,30.4833,-115.95,12.35,50,6,3.05,MX,1676516433
172,vao,-22.6667,167.4833,24.08,62,78,5.01,NC,1676516340
173,santa cruz,-17.8,-63.1667,23.7,83,75,2.06,BO,1676516406
174,coquimbo,-29.9533,-71.3436,15.85,94,20,3.09,CL,1676515996
175,kruisfontein,-34.0033,24.7314,18.27,87,73,2.23,ZA,1676516434
176,grindavik,63.8424,-22.4338,0.26,100,75,6.17,IS,1676516434
177,flin flon,54.7682,-101.865,-30.42,100,53,1.78,CA,1676516435
178,narsaq,60.9167,-46.05,-9.71,68,100,3.03,GL,1676516314
179,kapaa,22.0752,-159.319,23.18,81,40,6.17,US,1676516307
180,longyearbyen,78.2186,15.6401,-2.09,69,20,10.29,SJ,1676516435
181,puerto ayora,-0.7393,-90.3518,25.86,92,16,1.46,EC,1676516436
182,ravar,31.2656,56.8055,16.93,21,29,8.93,IR,1676516436
183,borgarnes,64.5383,-21.9206,0.03,91,100,2.09,IS,1676516437
184,salinas,36.6777,-121.6555,9.45,65,0,0.45,US,1676516438
185,saskylakh,71.9167,114.0833,-17.26,97,100,3.37,RU,1676516439
186,kazanskaya,45.4106,40.4361,-7.4,96,49,1.79,RU,1676516439
187,tamiahua,21.2667,-97.45,20.98,94,0,4.76,MX,1676516439
188,nanortalik,60.1432,-45.2371,-4.58,76,100,1.9,GL,1676516440
189,abu dhabi,24.4667,54.3667,22.06,28,0,4.12,AE,1676516227
190,malaya serdoba,52.4661,44.9512,-10.96,95,100,4.09,RU,1676516441
191,bilibino,68.0546,166.4372,-31.38,94,20,0.65,RU,1676516442
192,north bend,43.4065,-124.2243,7.95,89,0,1.54,US,1676516442
193,tuktoyaktuk,69.4541,-133.0374,-35.0,75,20,4.12,CA,1676516443
194,pangnirtung,66.1451,-65.7125,-29.47,100,100,0.82,CA,1676516328
195,vieques,18.425,-65.8329,25.62,80,35,7.25,PR,1676516443
196,port alfred,-33.5906,26.891,22.38,83,99,6.32,ZA,1676516444
197,gbarnga,6.9956,-9.4722,21.45,96,70,1.14,LR,1676516445
198,tutubigan,11.8397,125.0614,26.26,81,65,5.1,PH,1676516445
199,tiksi,71.6872,128.8694,-24.26,97,100,3.23,RU,1676516446
200,vilyuysk,63.7553,121.6247,-24.24,96,100,1.56,RU,1676516446
201,ucluelet,48.9329,-125.5528,4.49,91,100,0.45,CA,1676516446
202,half moon bay,37.4636,-122.4286,10.92,55,0,5.66,US,1676516264
203,mogadishu,2.0371,45.3438,23.87,81,15,8.08,SO,1676516447
204,chabahar,25.2919,60.643,22.34,62,96,0.69,IR,1676516448
205,georgetown,5.4112,100.3354,29.96,69,20,3.09,MY,1676516334
206,santa rosa,14.3122,121.1114,29.99,64,93,8.92,PH,1676516448
207,carnarvon,-24.8667,113.6333,26.04,56,0,7.44,AU,1676516180
208,calvinia,-31.4707,19.776,17.66,79,21,2.69,ZA,1676516449
209,necochea,-38.5473,-58.7368,16.13,72,11,6.09,AR,1676516450
210,esperance,-33.8667,121.9,22.37,52,43,1.75,AU,1676516450
211,krasnoselkup,65.7,82.4667,-18.3,97,99,4.13,RU,1676516450
212,gurupi,-11.7292,-49.0686,22.92,88,63,1.33,BR,1676516451
213,finnsnes,69.2296,17.9811,2.09,86,100,2.31,NO,1676516451
214,manono,-7.3,27.4167,21.01,95,100,1.06,CD,1676516452
215,salalah,17.0151,54.0924,19.83,69,5,0.61,OM,1676516452
216,aksarka,66.5606,67.7975,-9.73,85,100,9.7,RU,1676516452
217,vredendal,-31.6683,18.5012,16.32,95,14,1.35,ZA,1676516453
218,sao joao da barra,-21.6403,-41.0511,22.66,94,100,6.92,BR,1676516453
219,llanelli,51.682,-4.1619,8.4,97,100,12.86,GB,1676516454
220,hobyo,5.3505,48.5268,25.47,63,74,7.43,SO,1676516455
221,kushima,31.4583,131.2333,11.35,55,20,1.02,JP,1676516455
222,ketchikan,55.3422,-131.6461,3.26,93,100,0.0,US,1676516372
223,vostok,46.4856,135.8833,-11.42,74,29,2.33,RU,1676516456
224,derzhavinsk,51.1,66.3167,-13.29,98,100,3.83,KZ,1676516456
225,jaisalmer,26.9147,70.9181,23.16,16,4,2.83,IN,1676516457
226,ormara,25.2088,64.6357,22.37,58,100,2.68,PK,1676516457
227,asau,46.4333,26.4,-0.4,92,35,2.31,RO,1676516458
228,kazachka,53.3644,38.0694,-12.49,97,82,3.31,RU,1676516458
229,brae,60.3964,-1.353,6.38,60,87,10.74,GB,1676516458
230,taoudenni,22.6783,-3.9836,22.0,21,83,5.05,ML,1676516459
231,mount isa,-20.7333,139.5,26.87,61,100,5.14,AU,1676516459
232,glendive,47.1053,-104.7125,-5.73,78,0,6.17,US,1676516242
233,amapa,1.0,-52.0,22.36,99,100,0.18,BR,1676516460
234,victor harbor,-35.5667,138.6167,37.6,21,41,4.93,AU,1676516460
235,henderson,36.0397,-114.9819,10.19,16,0,7.2,US,1676515940
236,muisne,0.6,-80.0333,24.65,89,92,1.35,EC,1676516461
237,broome,42.2506,-75.833,15.92,55,3,0.89,US,1676516461
238,jasper,37.2001,-94.3502,8.69,73,0,5.14,US,1676516172
239,homer,59.6425,-151.5483,-3.44,79,100,5.81,US,1676516462
240,sisimiut,66.9395,-53.6735,-10.97,66,100,7.0,GL,1676516463
241,airai,-8.9266,125.4092,20.61,76,96,1.17,TL,1676516464
242,tezu,27.9167,96.1667,23.88,38,98,0.7,IN,1676516464
243,chuy,-33.6971,-53.4616,18.6,65,0,3.06,UY,1676516317
244,shetpe,44.1667,52.1167,-0.45,97,99,5.81,KZ,1676516466
245,dikson,73.5069,80.5464,-17.7,95,100,11.12,RU,1676516466
246,kaitangata,-46.2817,169.8464,15.94,69,98,3.06,NZ,1676516467
247,padang,-0.9492,100.3543,27.03,71,95,0.41,ID,1676516468
248,tomakomai,42.6369,141.6033,-1.02,59,75,2.06,JP,1676516468
249,rapar,23.5667,70.6333,22.81,51,12,1.66,IN,1676516469
250,torbay,47.6666,-52.7314,-4.17,93,0,6.69,CA,1676516470
251,new norfolk,-42.7826,147.0587,21.07,71,100,0.45,AU,1676516323
252,odweyne,9.4092,45.064,16.7,66,3,3.22,SO,1676516470
253,namangan,40.9983,71.6726,3.25,93,100,0.0,UZ,1676516471
254,mastic beach,40.7668,-72.8521,13.21,84,0,6.26,US,1676516146
255,balabac,7.9868,117.0645,27.3,76,100,7.77,PH,1676516472
256,port macquarie,-31.4333,152.9167,27.72,53,0,4.03,AU,1676516472
257,colac,-38.3333,143.5833,34.54,19,100,4.78,AU,1676515690
258,salamanca,40.8333,-6.0,0.55,82,0,2.41,ES,1676516473
259,deori khas,23.4,79.0167,20.98,26,0,1.87,IN,1676516474
260,marsaxlokk,35.8419,14.5431,7.34,93,20,0.51,MT,1676516474
261,talnakh,69.4865,88.3972,-15.57,96,100,5.54,RU,1676516468
262,marrakesh,31.6315,-8.0083,8.04,93,75,1.03,MA,1676516475
263,orumiyeh,37.5527,45.0761,-5.25,54,75,2.06,IR,1676516475
264,tasiilaq,65.6145,-37.6368,-12.33,74,94,2.48,GL,1676516319
265,nioro,13.35,-15.75,24.05,39,90,2.86,GM,1676516476
266,cabo san lucas,22.8909,-109.9124,19.17,73,100,3.96,MX,1676516397
267,smithers,54.7804,-127.1743,1.18,64,100,1.54,CA,1676516477
268,cockburn town,21.4612,-71.1419,24.9,77,12,11.01,TC,1676516478
269,dakar,14.6937,-17.4441,19.49,88,4,3.09,SN,1676516393
270,havoysund,70.9963,24.6622,0.13,81,45,6.91,NO,1676516478
271,junction city,39.0286,-96.8314,-1.08,75,100,7.6,US,1676516479
272,lethem,3.3803,-59.7968,25.19,81,99,4.51,GY,1676516479
273,solnechnyy,50.7214,136.6319,-15.55,87,53,2.0,RU,1676516479
274,deputatskiy,69.3,139.9,-36.88,92,24,1.89,RU,1676516480
275,honiara,-9.4333,159.95,30.29,70,99,2.42,SB,1676516018
276,paamiut,61.994,-49.6678,-4.07,85,100,8.63,GL,1676516481
277,esplanada,-11.7961,-37.945,23.44,90,70,2.38,BR,1676516481
278,ponta delgada,37.7333,-25.6667,13.4,76,75,1.03,PT,1676516443
279,salinopolis,-0.6136,-47.3561,25.31,88,100,2.87,BR,1676516482
280,opuwo,-18.0607,13.84,16.57,50,2,1.99,NA,1676516482
281,kavaratti,10.5669,72.642,26.67,73,22,3.0,IN,1676516401
282,freeport,40.6576,-73.5832,16.21,78,0,2.57,US,1676516447
283,marolambo,-20.05,48.1167,20.15,98,92,0.95,MG,1676516483
284,batticaloa,7.7102,81.6924,24.77,68,85,2.22,LK,1676516484
285,mindelo,16.8901,-24.9804,19.75,68,1,10.29,CV,1676516484
286,carballo,43.213,-8.691,9.17,89,100,0.7,ES,1676516485
287,pachora,20.6667,75.35,24.96,21,0,1.25,IN,1676516486
288,taonan,45.3333,122.7833,-3.53,35,100,5.18,CN,1676516486
289,buala,-8.145,159.5921,29.59,70,100,1.04,SB,1676516487
290,bogoslovka,53.2084,44.8013,-11.03,95,100,4.19,RU,1676516487
291,mporokoso,-9.3727,30.125,16.31,97,100,0.79,ZM,1676516488
292,beira,-19.8436,34.8389,24.05,100,20,2.57,MZ,1676516449
293,samarai,-10.6167,150.6667,29.38,71,62,6.3,PG,1676516489
294,nanakuli,21.3906,-158.1547,24.37,68,75,3.6,US,1676516489
295,basoko,1.2391,23.616,20.43,49,97,0.23,CD,1676516490
296,burtunay,42.9886,46.6303,-7.98,94,99,2.35,RU,1676516490
297,tsumeb,-19.2333,17.7167,19.53,37,17,3.55,NA,1676516491
298,bani walid,31.7566,13.9942,9.18,79,14,1.85,LY,1676516491
299,sao felix do xingu,-6.6447,-51.995,22.18,98,98,0.25,BR,1676516480
300,kieta,-6.2167,155.6333,29.69,70,56,2.15,PG,1676516492
301,mehamn,71.0357,27.8492,-1.03,80,54,5.14,NO,1676516492
302,russell,32.3502,-85.1999,21.6,73,100,2.57,US,1676516493
303,fort nelson,58.8053,-122.7002,-14.23,87,75,1.03,CA,1676516439
304,beloha,-25.1667,45.05,22.24,74,0,2.29,MG,1676516493
305,kirkenaer,60.4564,12.0582,2.72,91,100,5.17,NO,1676516493
306,edd,13.9297,41.6925,24.54,83,50,4.34,ER,1676516494
307,valparaiso,-33.0393,-71.6273,15.8,88,0,3.6,CL,1676516446
308,cacoal,-11.4386,-61.4472,23.17,95,100,1.76,BR,1676516495
309,codrington,-38.2667,141.9667,34.43,18,100,2.83,AU,1676516495
310,ilulissat,69.2167,-51.1,-10.99,44,75,7.2,GL,1676516496
311,aykhal,66.0,111.5,-21.73,99,100,2.84,RU,1676516496
312,nueve de julio,-35.4444,-60.8831,21.29,29,63,2.18,AR,1676515995
313,altay,47.8667,88.1167,-6.24,91,100,0.28,CN,1676516497
314,sitges,41.2351,1.8119,10.69,89,100,0.89,ES,1676516497
315,port blair,11.6667,92.75,28.02,74,40,3.6,IN,1676516451
316,ostrovnoy,68.0531,39.5131,0.06,87,90,12.01,RU,1676516372
317,kiama,-34.6833,150.8667,29.65,63,87,6.26,AU,1676516498
318,chapais,49.7834,-74.8492,1.88,99,100,3.26,CA,1676516498
319,port elizabeth,-33.918,25.5701,20.16,88,40,2.06,ZA,1676516499
320,laguna,38.421,-121.4238,9.86,43,0,0.0,US,1676516500
321,rio grande,-32.035,-52.0986,22.21,71,0,5.0,BR,1676516500
322,las palmas,28.4204,-14.0131,11.44,71,20,3.6,ES,1676516500
323,binzhou,37.3667,118.0167,7.24,31,6,3.46,CN,1676516501
324,hauterive,46.0901,3.4459,4.42,71,32,1.8,FR,1676516501
325,karpogory,64.0019,44.4451,-20.69,100,68,2.07,RU,1676516502
326,rio gallegos,-51.6226,-69.2181,5.03,60,0,9.26,AR,1676516502
327,paracuru,-3.41,-39.0306,27.28,85,99,3.19,BR,1676516225
328,plettenberg bay,-34.0527,23.3716,19.56,88,94,3.78,ZA,1676516503
329,soe,-9.8607,124.284,23.86,76,100,0.57,ID,1676516503
330,ternate,0.8,127.4,28.25,70,100,3.62,ID,1676516504
331,mersing,2.4312,103.8405,27.95,74,20,5.66,MY,1676516504
332,villaviciosa,43.4813,-5.4357,10.54,87,28,2.07,ES,1676516504
333,rawson,-43.3002,-65.1023,9.05,64,100,6.09,AR,1676516505
334,poltavka,54.3663,71.7632,-26.19,100,83,2.03,RU,1676516505
335,vra,57.3476,9.9515,4.86,97,100,4.76,DK,1676516505
336,los llanos de aridane,28.6585,-17.9182,11.86,77,40,5.66,ES,1676516506
337,lomovka,53.9194,58.3672,-17.99,99,97,1.23,RU,1676516506
338,nauta,-4.5061,-73.5757,22.78,99,100,2.2,PE,1676516507
339,vestmanna,62.1564,-7.1664,3.51,75,75,5.14,FO,1676516507
340,wentzville,38.8114,-90.8529,8.1,80,22,4.02,US,1676516507
341,caraquet,47.7941,-64.9386,0.3,98,99,5.03,CA,1676516438
342,walvis bay,-22.9575,14.5053,16.72,94,71,4.63,NA,1676516273
343,kontagora,10.3999,5.4695,20.34,18,68,3.93,NG,1676516508
344,san jose,37.3394,-121.895,10.9,50,20,3.09,US,1676516219
345,katherine,-14.4667,132.2667,33.18,55,75,3.09,AU,1676516509
346,damietta,31.4165,31.8133,11.94,64,81,2.88,EG,1676516509
347,santa cecilia,-26.9608,-50.4269,15.04,98,100,0.63,BR,1676516510
348,la cruz,23.9167,-106.9,15.59,70,83,3.89,MX,1676516511
349,husavik,66.0449,-17.3389,-1.94,86,100,3.84,IS,1676516302
350,oudtshoorn,-33.5907,22.2014,17.2,85,98,2.19,ZA,1676516511
351,palembang,-2.9167,104.7458,28.05,69,20,5.66,ID,1676516512
352,miandrivazo,-19.5167,45.4667,24.06,86,100,0.89,MG,1676516513
353,richards bay,-28.783,32.0377,23.73,94,100,2.52,ZA,1676516513
354,beringovskiy,63.05,179.3167,-24.03,93,100,6.37,RU,1676516514
355,tahta,26.7693,31.5021,9.16,60,5,2.89,EG,1676516514
356,niksic,42.7731,18.9445,-6.08,76,0,1.54,ME,1676516515
357,ibra,22.6906,58.5334,18.11,29,2,1.25,OM,1676516515
358,zemio,5.0314,25.1361,20.11,28,25,2.61,CF,1676516516
359,lovozero,68.005,35.0117,-4.57,95,52,3.04,RU,1676516516
360,jalu,29.0331,21.5482,11.41,61,66,4.01,LY,1676516516
361,harper,4.375,-7.7169,26.7,82,79,2.43,LR,1676516517
362,ribas do rio pardo,-20.4431,-53.7592,22.97,89,100,1.72,BR,1676516517
363,mandurah,-32.55,115.7,22.81,53,0,4.91,AU,1676516221
364,anjozorobe,-18.4,47.8667,16.97,92,100,1.04,MG,1676516418
365,tongren,27.7172,109.1853,8.33,54,100,0.78,CN,1676516518
366,kloulklubed,7.0419,134.2556,27.49,83,65,8.28,PW,1676516483
367,myre,69.1036,15.9492,4.97,80,100,6.79,NO,1676516518
368,constitucion,-35.3333,-72.4167,15.04,80,0,5.78,CL,1676516519
369,salzhemmendorf,52.067,9.5872,4.65,84,100,2.52,DE,1676516519
370,uarini,-2.99,-65.1083,23.05,99,97,0.66,BR,1676516520
371,lufilufi,-13.8745,-171.5986,30.88,67,95,5.51,WS,1676516520
372,grand-lahou,5.1367,-5.0242,26.26,87,94,2.42,CI,1676516520
373,almeirim,-1.5233,-52.5817,23.7,96,100,1.92,BR,1676516521
374,xai-xai,-25.0519,33.6442,23.14,95,9,2.76,MZ,1676516521
375,soldato-aleksandrovskoye,44.2653,43.7561,-4.3,85,100,2.08,RU,1676516522
376,bayan,46.0833,127.4,-9.44,71,98,2.57,CN,1676516522
377,turukhansk,65.8167,87.9833,-15.14,96,100,4.41,RU,1676516427
378,agirish,61.9247,63.0231,-17.84,100,100,2.33,RU,1676516523
379,roald,62.5833,6.1333,8.08,66,100,6.17,NO,1676516523
380,alappuzha,9.49,76.3264,23.65,69,23,2.08,IN,1676516524
381,luangwa,-15.6167,30.4167,22.73,98,100,0.57,ZM,1676516524
382,qasigiannguit,68.8193,-51.1922,-10.86,77,100,2.36,GL,1676516525
383,douentza,14.9951,-2.9517,20.29,21,94,3.21,ML,1676516525
384,gaziantep,37.0594,37.3825,-1.04,55,0,1.03,TR,1676516413
385,huatulco,15.8436,-96.3267,24.37,82,0,1.51,MX,1676516526
386,hofn,64.2539,-15.2082,1.74,74,100,3.4,IS,1676516526
387,ancud,-41.8697,-73.8203,9.1,69,37,3.35,CL,1676516527
388,salem,11.65,78.1667,23.52,52,12,1.15,IN,1676515758
389,alofi,-19.0595,-169.9187,27.94,83,75,3.6,NU,1676516527
390,krasnyy chikoy,50.3643,108.7512,-14.17,90,100,0.94,RU,1676516528
391,svetlyy,54.675,20.1347,2.03,91,100,3.85,RU,1676516528
392,bagdarin,54.4333,113.6,-12.56,84,100,2.03,RU,1676516529
393,mazamari,-11.3258,-74.5308,20.9,97,100,0.7,PE,1676516529
394,suratgarh,29.3167,73.9,20.08,24,84,1.65,IN,1676516530
395,hare bay,48.8499,-54.0148,-4.36,96,76,1.82,CA,1676516530
396,hami,42.8,93.45,1.04,36,83,1.5,CN,1676516530
397,ilebo,-4.3167,20.5833,21.74,97,100,0.47,CD,1676516531
398,veselynove,47.3567,31.2349,-3.21,78,62,2.8,UA,1676516531
399,roma,43.2128,-75.4557,13.79,67,9,0.89,US,1676516532
400,bani,18.2833,-70.3333,22.69,80,1,5.98,DO,1676516532
401,paita,-5.0892,-81.1144,24.93,78,100,2.27,PE,1676516533
402,olafsvik,64.8945,-23.7142,2.66,68,67,7.47,IS,1676516533
403,gualaquiza,-3.4,-78.55,17.52,98,100,0.7,EC,1676516534
404,cherskiy,68.75,161.3,-38.22,97,63,1.69,RU,1676516534
405,maceio,-9.6658,-35.7353,25.69,88,40,1.54,BR,1676516286
406,okhotsk,59.3833,143.3,-19.5,72,100,8.22,RU,1676516535
407,kahului,20.8947,-156.47,25.47,81,45,1.74,US,1676516536
408,high level,58.5169,-117.136,-17.94,78,0,3.09,CA,1676516467
409,manzanillo,20.3433,-77.1167,23.1,80,10,3.97,CU,1676516536
410,hambantota,6.1241,81.1185,23.19,88,0,3.6,LK,1676516537
411,tete,-16.1564,33.5867,23.05,100,75,0.0,MZ,1676516537
412,olinda,-8.0089,-34.8553,27.85,74,75,3.09,BR,1676516235
413,imbituba,-28.24,-48.6703,22.69,91,86,2.03,BR,1676516538
414,vestmannaeyjar,63.4427,-20.2734,3.78,67,98,6.56,IS,1676516539
415,chifeng,42.2683,118.9636,1.28,40,20,4.8,CN,1676516539
416,ulaanbaatar,47.9077,106.8832,-18.93,78,20,0.0,MN,1676516539
417,changping,40.2186,116.2197,0.8,53,0,0.15,CN,1676516540
418,ulladulla,-35.35,150.4667,26.8,52,89,5.57,AU,1676516541
419,villa bruzual,9.3328,-69.1208,25.5,67,88,3.76,VE,1676516541
420,bonavista,48.6499,-53.1147,-4.53,81,16,4.62,CA,1676516541
421,port augusta,-32.5,137.7667,39.43,7,0,5.58,AU,1676516542
422,tocopilla,-22.092,-70.1979,21.93,83,29,0.94,CL,1676516543
423,price,39.5994,-110.8107,-6.6,77,92,2.51,US,1676516413
424,praia,14.9215,-23.5087,20.3,77,20,8.75,CV,1676516543
425,batagay-alyta,67.8006,130.4114,-31.4,83,36,0.89,RU,1676516544
426,belle fourche,44.6714,-103.8522,-10.92,85,70,2.16,US,1676516544
427,verkhnyaya inta,65.9811,60.3094,-9.81,84,100,10.33,RU,1676516545
428,englehart,47.8169,-79.8664,-5.69,86,100,10.29,CA,1676516545
429,alta floresta,-9.8756,-56.0861,21.9,98,100,1.43,BR,1676516546
430,nikki,9.9401,3.2108,19.6,19,15,2.4,BJ,1676516547
431,domoni,-12.2569,44.5319,25.81,81,83,2.54,KM,1676516547
432,aksu,41.1231,80.2644,0.41,50,83,0.43,CN,1676516548
433,pavlogradka,54.2024,73.5592,-26.17,100,73,2.16,RU,1676516548
434,port hardy,50.6996,-127.4199,4.1,87,100,10.8,CA,1676516453
435,tura,25.5198,90.2201,22.72,29,0,0.85,IN,1676516357
436,almonte,37.2647,-6.5167,11.98,70,98,2.94,ES,1676516549
437,santa isabel do rio negro,-0.4139,-65.0192,23.52,95,100,0.46,BR,1676516550
438,mildura,-34.2,142.15,38.37,26,0,6.28,AU,1676516550
439,lata,40.1629,-8.3327,6.07,80,5,1.67,PT,1676516551
440,madimba,-10.4,40.3333,25.96,78,85,2.27,TZ,1676516551
441,adamovka,51.5223,59.9396,-9.18,96,100,3.2,RU,1676516551
442,lavrentiya,65.5833,-171.0,-29.95,93,11,2.11,RU,1676516552
443,aklavik,68.2191,-135.0107,-33.99,99,20,0.22,CA,1676516552
444,arlit,18.7369,7.3853,14.63,18,100,2.86,NE,1676516553
445,campbell river,50.0163,-125.2446,4.69,100,100,5.14,CA,1676516439
446,el alto,-4.2714,-81.2147,24.81,80,100,2.44,PE,1676516554
447,nipawin,53.3668,-104.0009,-18.98,71,0,3.09,CA,1676516477
448,saint-gaudens,43.0833,0.6667,5.89,57,96,2.32,FR,1676516554
449,moroni,-11.7022,43.2551,25.57,78,61,1.59,KM,1676516555
450,luba,3.4568,8.5547,24.94,81,83,3.27,GQ,1676516555
451,dukat,62.55,155.55,-28.93,96,100,2.67,RU,1676516556
452,margate,51.3813,1.3862,9.27,88,100,1.34,GB,1676516556
453,nortelandia,-14.4547,-56.8028,23.5,92,100,1.69,BR,1676516556
454,sonoita,31.85,-112.8333,8.61,23,0,3.39,MX,1676516557
455,ahuimanu,21.4447,-157.8378,24.23,80,100,3.09,US,1676516559
456,olavarria,-36.8927,-60.3225,15.46,61,58,5.81,AR,1676516559
457,oktyabrskoye,43.0645,44.7417,-4.92,92,100,2.0,RU,1676516560
458,saint anthony,45.0205,-93.218,-5.22,79,20,6.17,US,1676516442
459,fukue,32.6881,128.8419,9.2,57,20,5.14,JP,1676516332
460,farmington,36.7281,-108.2187,-7.62,79,40,5.14,US,1676516376
461,belmonte,-15.8631,-38.8828,25.61,84,64,3.61,BR,1676516560
462,angoche,-16.2325,39.9086,24.05,86,100,2.83,MZ,1676516540
463,troutdale,45.5393,-122.3873,4.37,81,0,0.89,US,1676516561
464,iquitos,-3.7481,-73.2472,25.02,88,100,1.54,PE,1676516271
465,albuquerque,35.0845,-106.6511,-1.06,51,47,1.34,US,1676516403
466,areka,7.0667,37.7,15.77,48,51,1.82,ET,1676516562
467,havre-saint-pierre,50.2334,-63.5986,-2.0,93,75,5.14,CA,1676516562
468,male,4.1748,73.5089,26.97,74,20,5.66,MV,1676516563
469,ventspils,57.3894,21.5606,2.96,93,100,2.57,LV,1676516179
470,lodja,-3.4833,23.4333,21.03,99,100,0.68,CD,1676516563
471,tervel,43.75,27.4,-0.95,71,6,0.54,BG,1676516564
472,damme,52.5167,8.2,5.68,79,63,1.34,DE,1676516564
473,beni suef,29.0731,31.0979,8.75,69,16,1.63,EG,1676516565
474,egvekinot,66.3167,-179.1667,-29.6,87,11,2.97,RU,1676516565
475,tuscaloosa,33.2098,-87.5692,20.88,84,100,3.09,US,1676516565
476,la rioja,42.25,-2.5,-4.12,72,59,2.41,ES,1676516566
477,livingston,55.9029,-3.5226,7.11,86,0,2.06,GB,1676516566
478,san patricio,28.017,-97.5169,23.05,92,98,6.18,US,1676516212
479,ube,33.9431,131.2511,8.46,49,20,4.12,JP,1676516567
480,gunjur,13.2019,-16.7339,20.0,75,53,6.16,GM,1676516567
481,vanimo,-2.6741,141.3028,27.0,80,96,0.69,PG,1676516567
482,yar-sale,66.8333,70.8333,-11.08,85,100,8.98,RU,1676516568
483,lazaro cardenas,17.9583,-102.2,23.01,74,0,2.57,MX,1676516568
484,namibe,-15.1961,12.1522,22.66,80,95,1.86,AO,1676516569
485,norman wells,65.282,-126.8329,-26.98,76,75,1.03,CA,1676516569
486,aizawl,23.7333,92.7167,11.89,67,0,2.06,IN,1676516569
487,lalibela,12.0333,39.0333,13.86,57,70,1.09,ET,1676516570
488,isnos,1.9356,-76.2406,14.68,97,89,1.57,CO,1676516570
489,tambovka,50.0969,128.0489,-14.69,88,100,1.16,RU,1676516571
490,zaranj,30.9667,61.8833,8.98,21,100,5.22,AF,1676516561
491,halifax,44.6453,-63.5724,4.14,91,64,6.69,CA,1676516420
492,cabra,37.4725,-4.4421,10.53,73,95,0.6,ES,1676516567
493,sioux lookout,50.1001,-91.917,-15.96,66,40,2.06,CA,1676516572
494,challapata,-18.9,-66.7667,11.03,69,100,0.51,BO,1676516572
495,nicoya,10.1483,-85.452,24.69,69,4,3.86,CR,1676516572
496,scarborough,54.2797,-0.4044,6.76,83,100,0.45,GB,1676516331
497,vallenar,-28.5708,-70.7581,20.69,62,0,1.52,CL,1676516573
498,mogapi,-22.323,27.8349,19.83,92,100,4.05,BW,1676516573
499,otane,-39.8833,176.6333,17.23,88,99,4.75,NZ,1676516573
500,abancay,-13.6339,-72.8814,13.91,93,92,1.21,PE,1676516454
501,cortez,37.3489,-108.5859,-10.72,93,89,2.66,US,1676516421
502,vardo,70.3705,31.1107,-1.01,86,100,11.32,NO,1676516574
503,tessalit,20.1986,1.0114,17.63,20,100,7.33,ML,1676516542
504,ghanzi,-21.5667,21.7833,19.67,90,100,3.65,BW,1676516575
505,namatanai,-3.6667,152.4333,30.2,64,96,2.18,PG,1676516575
506,lugo,43.0,-7.5,5.43,88,100,0.45,ES,1676516575
507,guerrero negro,27.9769,-114.0611,13.95,52,100,5.32,MX,1676516341
508,karratha,-20.7377,116.8463,39.19,19,12,1.43,AU,1676516576
509,bollnas,61.3482,16.3946,3.16,97,100,4.04,SE,1676516577
510,manapparai,10.6,78.4167,23.48,71,9,1.69,IN,1676516577
511,belaya gora,68.5333,146.4167,-34.98,96,95,1.42,RU,1676516577
512,kargil,34.5667,76.1,-15.4,86,95,0.97,IN,1676516578
513,ahipara,-35.1667,173.1667,20.59,77,29,3.84,NZ,1676516368
514,porto de moz,-1.7483,-52.2383,24.17,91,100,1.69,BR,1676516579
515,abnub,27.2696,31.1511,7.12,63,6,3.43,EG,1676516579
516,kisangani,0.5167,25.2,20.55,52,100,1.0,CD,1676516579
517,vila velha,-20.3297,-40.2925,26.97,83,20,4.12,BR,1676516554
518,prokudskoye,55.0089,82.4574,-25.07,76,90,2.0,RU,1676516580
519,andenes,69.3143,16.1194,4.99,75,100,6.69,NO,1676516580
520,buenos aires,-34.6132,-58.3772,27.1,52,0,1.54,AR,1676516311
521,moron,-34.6534,-58.6198,27.1,50,24,2.95,AR,1676516581
522,sabha,27.0377,14.4283,7.66,65,54,4.91,LY,1676516581
523,devarkonda,16.7,78.9333,23.07,22,0,1.42,IN,1676516582
524,oussouye,12.485,-16.5469,21.53,66,93,3.36,SN,1676516582
525,insch,57.3427,-2.6132,5.12,94,87,1.06,GB,1676516583
526,ixtapa,20.7,-105.2,16.68,85,1,1.06,MX,1676516583
527,flinders,-34.5833,150.8552,29.54,61,85,2.24,AU,1676516304
528,ronneby,56.21,15.276,1.28,100,100,2.06,SE,1676516584
529,kalmunai,7.4167,81.8167,24.4,71,85,2.18,LK,1676516584
530,kokologo,12.1897,-1.8856,23.92,18,1,6.4,BF,1676516584
531,houma,29.5958,-90.7195,22.22,93,75,5.14,US,1676516412
532,panara,22.0667,78.55,21.57,24,0,1.86,IN,1676516585
533,kirakira,-10.4544,161.9205,30.01,73,100,2.36,SB,1676516586
534,freetown,8.484,-13.2299,26.84,74,75,3.09,SL,1676516415
535,mangan,27.5167,88.5333,19.61,31,100,1.14,IN,1676516586
536,majene,-3.5403,118.9707,29.04,67,100,3.0,ID,1676516587
537,baykit,61.67,96.37,-20.96,100,100,0.76,RU,1676516587
538,meulaboh,4.1363,96.1285,27.07,76,98,1.47,ID,1676516588
539,lujan,-34.5703,-59.105,24.97,71,34,0.45,AR,1676516588
540,waipawa,-41.4122,175.5153,12.56,90,100,7.05,NZ,1676516589
541,alice springs,-23.7,133.8833,35.75,8,0,1.54,AU,1676516589
542,norden,53.6,7.2,4.99,97,48,5.46,DE,1676516590
543,nizhniy ingash,56.2,96.53,-19.33,99,100,0.99,RU,1676516590
544,yamada,39.4667,141.95,1.24,50,45,1.67,JP,1676516542
545,port moresby,-9.4431,147.1797,30.68,70,40,3.09,PG,1676516591
546,awbari,26.5921,12.7805,7.23,65,67,3.53,LY,1676516591
547,sambava,-14.2667,50.1667,23.4,91,15,2.17,MG,1676516576
548,ouadda,8.0777,22.4007,18.57,23,14,3.68,CF,1676516592
549,ihosy,-22.4,46.1167,19.24,92,100,2.45,MG,1676516593
550,port-cartier,50.0334,-66.8654,-2.88,97,100,3.11,CA,1676516528
551,nouadhibou,20.931,-17.0347,16.99,77,0,11.32,MR,1676516593
552,talcahuano,-36.7167,-73.1167,15.82,67,0,7.72,CL,1676516594
553,bereda,43.2686,-7.5406,5.79,93,100,0.68,ES,1676516594
554,mitsamiouli,-11.3847,43.2844,26.86,76,46,3.88,KM,1676516594
555,itaberai,-16.0203,-49.8103,20.93,83,100,1.13,BR,1676516595
556,springbok,-29.6643,17.8865,12.07,92,37,1.02,ZA,1676516595
557,sibolga,1.7427,98.7792,29.15,58,69,0.77,ID,1676516596
558,sept-iles,50.2001,-66.3821,-2.71,96,100,3.6,CA,1676516596
559,alindao,5.0267,21.2088,21.95,31,100,2.05,CF,1676516597
560,dondo,-19.6094,34.7431,23.73,95,3,2.25,MZ,1676516597
561,bhainsdehi,21.6467,77.6325,21.8,23,0,1.44,IN,1676516598
562,uhlove,44.8215,33.6045,-1.1,75,98,4.34,UA,1676516598
563,haines junction,60.7522,-137.5108,-8.03,86,100,1.03,CA,1676516598
564,lekoni,-1.5843,14.2591,22.74,83,95,1.96,GA,1676516599
565,komsomolskiy,40.4272,71.7189,2.4,100,100,1.03,UZ,1676516386
